City_ID,City,Lat,Lng,Max Temp,Humidity,Cloudiness,Wind Speed,Country,Date
0,lompoc,34.6391,-120.4579,290.38,84,100,4.63,US,1679341826
1,jamestown,42.097,-79.2353,280.66,31,0,7.2,US,1679342057
2,provideniya,64.3833,-173.3,270.62,95,100,12.7,RU,1679342067
3,portobelo,9.55,-79.65,302.65,73,93,5.31,PA,1679342068
4,yellowknife,62.456,-114.3525,263.46,52,40,3.6,CA,1679341843
5,barrow,71.2906,-156.7887,256.16,85,0,4.12,US,1679342068
6,port elizabeth,-33.918,25.5701,293.32,80,0,5.14,ZA,1679342070
7,gorontalo,0.5412,123.0595,296.7,94,100,1.05,ID,1679342071
8,ushuaia,-54.8,-68.3,283.94,76,75,13.89,AR,1679341984
9,chokurdakh,70.6333,147.9167,244.18,92,100,8.52,RU,1679342073
10,khasan,42.4308,130.6434,276.05,76,71,1.62,RU,1679342073
11,rikitea,-23.1203,-134.9692,299.58,78,2,5.77,PF,1679342074
12,punta arenas,-53.15,-70.9167,287.16,62,40,14.4,CL,1679342076
13,puerto ayora,-0.7393,-90.3518,304.13,86,61,4.92,EC,1679342076
14,ilulissat,69.2167,-51.1,271.16,54,20,1.54,GL,1679342077
15,hilo,19.7297,-155.09,299.96,74,75,4.02,US,1679342077
16,airai,-8.9266,125.4092,287.34,87,81,0.85,TL,1679342077
17,port alfred,-33.5906,26.891,293.65,80,100,4.04,ZA,1679342078
18,vaini,-21.2,-175.2,299.24,83,75,4.12,TO,1679341793
19,nagato,34.3833,131.2,286.36,89,100,6.06,JP,1679342079
20,hobart,-42.8794,147.3294,279.85,90,0,4.63,AU,1679342079
21,new norfolk,-42.7826,147.0587,279.66,73,8,0.82,AU,1679342080
22,aleksandro-nevskiy,53.4751,40.2095,274.44,96,100,1.43,RU,1679342080
23,sabang,5.8933,95.3214,300.86,74,100,5.11,ID,1679342081
24,codrington,-38.2667,141.9667,285.95,78,100,4.6,AU,1679342081
25,mataura,-46.1927,168.8643,281.47,81,100,4.88,NZ,1679342082
26,hermanus,-34.4187,19.2345,293.04,69,11,8.56,ZA,1679342082
27,padang,-0.9492,100.3543,297.18,91,100,1.64,ID,1679342083
28,busselton,-33.65,115.3333,293.43,62,1,6.41,AU,1679342083
29,dikson,73.5069,80.5464,256.18,98,91,3.8,RU,1679342084
30,saskylakh,71.9167,114.0833,234.73,99,43,2.58,RU,1679342084
31,cidreira,-30.1811,-50.2056,298.76,76,52,3.13,BR,1679342085
32,kodiak,57.79,-152.4072,273.88,75,100,2.57,US,1679341863
33,lavrentiya,65.5833,-171.0,268.86,92,100,14.38,RU,1679342085
34,carnarvon,-24.8667,113.6333,296.24,80,6,7.65,AU,1679341798
35,ontario,34.0633,-117.6509,291.14,81,75,5.14,US,1679342024
36,toma,12.7667,-2.8833,303.53,9,5,1.24,BF,1679342086
37,esperance,-33.8667,121.9,291.2,79,32,6.4,AU,1679342086
38,inhambane,-23.865,35.3833,298.14,83,20,3.01,MZ,1679342087
39,tautira,-17.7333,-149.15,300.57,78,100,5.66,PF,1679342087
40,iqaluit,63.7506,-68.5145,249.09,76,0,10.29,CA,1679342088
41,bredasdorp,-34.5322,20.0403,291.97,54,17,6.19,ZA,1679342088
42,kahului,20.8947,-156.47,300.91,66,20,4.12,US,1679341884
43,albany,42.6001,-73.9662,283.74,18,0,1.34,US,1679341888
44,haysville,37.5645,-97.3523,288.79,33,75,13.89,US,1679342089
45,aitape,-3.1374,142.3475,297.98,89,44,1.98,PG,1679342089
46,faanui,-16.4833,-151.75,301.26,68,8,3.95,PF,1679342090
47,havoysund,70.9963,24.6622,270.28,56,100,3.77,NO,1679342090
48,champerico,14.3,-91.9167,307.45,64,18,5.95,GT,1679342091
49,sambava,-14.2667,50.1667,298.43,87,100,3.29,MG,1679342091
50,klaksvik,62.2266,-6.589,276.66,79,100,12.65,FO,1679342092
51,olafsvik,64.8945,-23.7142,272.57,70,78,7.46,IS,1679341911
52,rambha,19.5167,85.1,298.11,80,12,4.49,IN,1679342092
53,santa marta,11.2408,-74.199,305.31,54,20,4.12,CO,1679342094
54,domanivka,47.6319,30.9885,282.52,61,100,3.03,UA,1679342096
55,castro,-24.7911,-50.0119,297.04,71,42,1.89,BR,1679342097
56,kushiro,42.975,144.3747,275.77,77,11,1.07,JP,1679342098
57,eureka,40.8021,-124.1637,286.59,69,22,1.79,US,1679342099
58,larsnes,62.2028,5.5773,274.82,89,31,2.01,NO,1679342099
59,kodumudi,11.0775,77.8836,299.21,68,100,2.66,IN,1679342100
60,pontianak,-0.0333,109.3333,296.14,100,100,1.54,ID,1679342101
61,chietla,18.5167,-98.5833,303.25,22,0,2.7,MX,1679342102
62,cabo san lucas,22.8909,-109.9124,301.27,65,27,2.4,MX,1679341951
63,cape town,-33.9258,18.4232,292.1,79,75,8.75,ZA,1679341381
64,arraial do cabo,-22.9661,-42.0278,306.13,65,20,8.23,BR,1679342103
65,mangaluru,12.8667,74.8833,297.63,69,17,0.0,IN,1679342104
66,saint-philippe,-21.3585,55.7679,297.92,84,100,2.57,RE,1679342105
67,bjornevatn,69.6672,29.9847,268.34,68,0,6.17,NO,1679342105
68,saint-francois,46.4154,3.9054,280.91,81,0,0.51,FR,1679342016
69,miri,4.4148,114.0089,297.23,94,40,1.03,MY,1679342106
70,angoche,-16.2325,39.9086,298.06,88,72,3.37,MZ,1679342107
71,gat,31.61,34.7642,287.26,100,20,2.42,IL,1679342107
72,kaeo,-35.1,173.7833,289.71,87,70,2.57,NZ,1679342108
73,comodoro rivadavia,-45.8667,-67.5,292.07,32,0,4.63,AR,1679342009
74,qaqortoq,60.7167,-46.0333,273.59,63,100,6.15,GL,1679342108
75,aklavik,68.2191,-135.0107,264.15,67,75,2.57,CA,1679342109
76,moga,30.8,75.1667,286.44,95,100,2.55,IN,1679342110
77,palmerston,-12.486,130.9833,299.14,90,40,2.57,AU,1679342110
78,kawalu,-7.3817,108.2082,295.81,96,100,0.4,ID,1679342111
79,roma,43.2128,-75.4557,282.64,27,6,2.68,US,1679341877
80,tuatapere,-46.1333,167.6833,282.78,77,100,6.29,NZ,1679342112
81,gizo,-8.103,156.8419,300.86,75,73,3.71,SB,1679342113
82,bongor,10.2806,15.3722,302.97,40,81,2.79,TD,1679342113
83,muscat,23.6139,58.5922,298.16,46,90,1.49,OM,1679342114
84,vila,42.0304,-8.1588,279.64,92,96,1.66,PT,1679342114
85,bluff,-46.6,168.3333,284.67,62,100,13.64,NZ,1679342114
86,tura,25.5198,90.2201,289.31,92,53,1.01,IN,1679342118
87,rawson,-43.3002,-65.1023,290.22,45,100,4.35,AR,1679341881
88,chuy,-33.6971,-53.4616,295.27,71,96,6.28,UY,1679342119
89,igarka,67.4667,86.5833,261.08,94,100,9.74,RU,1679342120
90,butaritari,3.0707,172.7902,300.17,80,84,5.92,KI,1679342121
91,tuktoyaktuk,69.4541,-133.0374,263.15,79,75,3.6,CA,1679342122
92,harper,4.375,-7.7169,300.12,82,15,4.92,LR,1679341952
93,shubarshi,48.5872,57.1869,273.44,55,60,3.67,KZ,1679342122
94,batagay-alyta,67.8006,130.4114,245.01,98,100,1.18,RU,1679342123
95,kapaa,22.0752,-159.319,300.14,85,40,1.79,US,1679342123
96,opuwo,-18.0607,13.84,294.62,40,79,2.82,NA,1679342124
97,dillon,34.4166,-79.3712,288.85,32,19,3.88,US,1679342111
98,conceicao do araguaia,-8.2578,-49.2647,301.77,69,74,0.65,BR,1679342125
99,katsuura,35.1333,140.3,287.16,81,74,2.91,JP,1679341851
100,sorland,67.667,12.6934,273.07,62,100,14.02,NO,1679342125
101,likasi,-10.9814,26.7333,289.93,97,100,1.74,CD,1679342126
102,iwanai,42.9744,140.5089,275.05,91,54,2.62,JP,1679342126
103,port blair,11.6667,92.75,299.83,79,6,2.63,IN,1679342127
104,saldanha,-33.0117,17.9442,291.18,81,0,6.45,ZA,1679342127
105,georgetown,5.4112,100.3354,300.11,89,20,0.0,MY,1679342076
106,elliot,-31.3333,27.85,290.73,54,100,2.52,ZA,1679342128
107,kasangulu,-4.5911,15.1708,294.83,86,100,1.12,CD,1679342128
108,upernavik,72.7868,-56.1549,246.77,98,96,5.42,GL,1679342129
109,san quintin,30.4833,-115.95,290.67,79,90,4.06,MX,1679341975
110,caravelas,-17.7125,-39.2481,300.13,71,3,2.95,BR,1679342130
111,tual,-5.6667,132.75,301.35,73,87,1.33,ID,1679342130
112,avarua,-21.2078,-159.775,300.18,83,90,4.63,CK,1679342131
113,nikolskoye,59.7035,30.7861,280.09,97,100,3.77,RU,1679342132
114,paamiut,61.994,-49.6678,270.89,78,99,3.64,GL,1679341855
115,celica,-4.1167,-79.95,294.1,75,67,2.01,EC,1679342132
116,urumqi,43.801,87.6005,268.68,100,75,2.0,CN,1679342133
117,pasni,25.2631,63.471,296.79,64,4,2.47,PK,1679342133
118,anadyr,64.75,177.4833,263.43,85,100,12.0,RU,1679342134
119,alice springs,-23.7,133.8833,291.9,48,0,1.03,AU,1679342134
120,yenagoa,4.9247,6.2642,299.88,75,33,2.68,NG,1679342135
121,lebu,-37.6167,-73.65,288.17,69,31,7.55,CL,1679342135
122,kavieng,-2.5744,150.7967,300.39,67,89,3.83,PG,1679342136
123,tevaitoa,-16.7833,-151.5,301.27,68,6,4.07,PF,1679342136
124,ciudad bolivar,8.1222,-63.5497,309.89,23,28,7.02,VE,1679342137
125,bijie,27.3125,105.2942,283.8,86,99,2.41,CN,1679342137
126,constitucion,-35.3333,-72.4167,293.05,49,0,4.46,CL,1679342137
127,bethel,41.3712,-73.414,285.01,27,0,3.09,US,1679342023
128,lons-le-saunier,46.75,5.75,281.06,93,49,1.35,FR,1679342138
129,ugoofaaru,5.6667,73.0,300.73,75,21,3.13,MV,1679342139
130,naryan-mar,67.6713,53.087,271.37,95,100,11.32,RU,1679342142
131,gasa,31.5,34.4667,284.75,73,1,4.03,PS,1679341936
132,shelburne,44.0787,-80.2041,278.4,63,62,7.22,CA,1679342145
133,severo-kurilsk,50.6789,156.125,269.95,67,59,6.91,RU,1679342145
134,antalaha,-14.9003,50.2788,297.41,89,100,2.43,MG,1679342146
135,wakefield,53.6809,-1.499,286.62,86,100,3.14,GB,1679342146
136,cutro,39.0353,16.9819,285.18,94,0,3.6,IT,1679342146
137,geraldton,-28.7667,114.6,294.38,88,100,1.54,AU,1679342121
138,atuona,-9.8,-139.0333,299.82,71,0,6.05,PF,1679342147
139,port macquarie,-31.4333,152.9167,293.65,87,100,5.94,AU,1679341998
140,dzilam gonzalez,21.2833,-88.9333,296.14,62,91,4.78,MX,1679342148
141,lermontovka,47.1453,134.3383,272.21,88,7,2.35,RU,1679342148
142,sao filipe,14.8961,-24.4956,295.78,76,3,3.74,CV,1679342149
143,liwale,-9.7667,37.9333,293.45,98,100,0.84,TZ,1679342149
144,muros,42.7762,-9.0603,286.53,80,100,2.92,ES,1679341949
145,cockburn town,21.4612,-71.1419,298.37,82,2,7.56,TC,1679342150
146,margate,51.3813,1.3862,283.08,89,100,1.79,GB,1679342100
147,luanda,-8.8368,13.2343,301.15,74,20,4.12,AO,1679342123
148,nome,64.5011,-165.4064,270.19,93,100,15.43,US,1679342151
149,nchelenge,-9.3451,28.734,294.11,89,100,2.1,ZM,1679342151
150,cherskiy,68.75,161.3,242.01,97,100,4.6,RU,1679342151
151,tessalit,20.1986,1.0114,297.48,11,0,5.55,ML,1679342152
152,nyaunglebin,17.95,96.7333,297.89,58,96,1.97,MM,1679342153
153,bilma,18.6853,12.9164,302.81,6,55,2.55,NE,1679342153
154,east london,-33.0153,27.9116,296.68,78,100,3.37,ZA,1679342047
155,kuytun,54.3419,101.5036,257.18,91,100,4.25,RU,1679342154
156,coxim,-18.5067,-54.76,299.0,84,82,2.69,BR,1679342154
157,sioux lookout,50.1001,-91.917,265.19,27,20,2.06,CA,1679342154
158,husavik,66.0449,-17.3389,262.93,85,9,5.25,IS,1679342155
159,rio gallegos,-51.6226,-69.2181,287.18,35,0,15.43,AR,1679342155
160,abu dhabi,24.4667,54.3667,299.79,51,0,2.06,AE,1679342156
161,mar del plata,-38.0023,-57.5575,294.72,62,0,3.09,AR,1679342156
162,lampa,-33.2833,-70.9,303.33,36,0,9.26,CL,1679342156
163,petropavlovsk-kamchatskiy,53.0452,158.6483,267.48,50,20,7.0,RU,1679342157
164,tabat,-2.635,115.2274,295.96,99,100,0.62,ID,1679342158
165,vyartsilya,62.1764,30.693,273.3,99,100,1.94,RU,1679342158
166,longyearbyen,78.2186,15.6401,254.06,60,20,5.14,SJ,1679342158
167,okmulgee,35.6234,-95.9605,288.36,31,40,7.2,US,1679342159
168,kailua,21.4022,-157.7394,300.14,74,40,2.68,US,1679341969
169,oyama,36.3,139.8,287.92,71,27,0.9,JP,1679342160
170,qaanaaq,77.484,-69.3632,254.46,66,5,3.37,GL,1679342160
171,pisco,-13.7,-76.2167,299.18,69,0,4.54,PE,1679342149
172,touros,-5.1989,-35.4608,300.06,75,16,4.03,BR,1679342162
173,los llanos de aridane,28.6585,-17.9182,290.01,77,75,7.2,ES,1679342162
174,launceston,-41.45,147.1667,280.82,88,71,3.6,AU,1679342039
175,kapuskasing,49.4169,-82.4331,263.15,52,100,3.09,CA,1679342164
176,dudinka,69.4058,86.1778,261.38,93,100,11.73,RU,1679341882
177,praia,14.9215,-23.5087,297.45,64,20,9.26,CV,1679341986
178,thompson,55.7435,-97.8558,259.24,61,0,2.06,CA,1679342166
179,mahebourg,-20.4081,57.7,298.31,94,40,0.51,MU,1679342167
180,hithadhoo,-0.6,73.0833,301.2,74,85,2.51,MV,1679342167
181,lamu,-2.2717,40.902,300.27,87,82,3.71,KE,1679342168
182,taoudenni,22.6783,-3.9836,298.52,20,0,4.07,ML,1679342168
183,genhe,50.7833,121.5167,267.45,98,100,0.06,CN,1679342169
184,qui nhon,13.7667,109.2333,295.91,90,34,2.15,VN,1679342170
185,ribeira grande,38.5167,-28.7,289.69,82,40,4.12,PT,1679342170
186,bambous virieux,-20.3428,57.7575,298.29,94,40,0.51,MU,1679342170
187,tezu,27.9167,96.1667,289.47,92,100,1.12,IN,1679342171
188,tasiilaq,65.6145,-37.6368,265.24,79,83,2.82,GL,1679342171
189,nizwa,22.9333,57.5333,294.94,67,57,2.68,OM,1679342172
190,leningradskiy,69.3833,178.4167,255.85,97,100,7.2,RU,1679342173
191,kaka,37.3482,59.6143,287.34,32,5,2.13,TM,1679342173
192,wukari,7.85,9.7833,303.02,43,48,2.24,NG,1679342174
193,tshikapa,-6.4167,20.8,294.24,96,99,1.3,CD,1679342174
194,verkhoyansk,67.5447,133.385,246.47,100,100,0.94,RU,1679342175
195,ordu,40.9086,37.6845,274.43,95,100,2.46,TR,1679342175
196,xinxiang,35.3089,113.8672,282.08,90,53,1.37,CN,1679342176
197,vallenar,-28.5708,-70.7581,301.61,42,7,4.67,CL,1679342176
198,bagotville,-28.9833,153.4167,294.06,99,50,3.2,AU,1679342176
199,porbandar,21.6422,69.6093,297.33,78,0,2.63,IN,1679342177
200,torbay,47.6666,-52.7314,272.91,70,75,21.09,CA,1679342178
201,khatanga,71.9667,102.5,236.27,100,55,1.65,RU,1679342178
202,plettenberg bay,-34.0527,23.3716,291.07,89,11,0.83,ZA,1679342178
203,hargeysa,9.56,44.065,295.98,67,23,2.66,SO,1679342179
204,hasaki,35.7333,140.8333,284.37,72,4,4.0,JP,1679342180
205,bathsheba,13.2167,-59.5167,302.49,58,20,11.83,BB,1679342180
206,buraydah,26.326,43.975,290.4,29,0,4.92,SA,1679342017
207,mandurah,-32.55,115.7,298.71,52,0,5.1,AU,1679342181
208,sisimiut,66.9395,-53.6735,266.58,87,19,5.06,GL,1679342181
209,broken hill,-31.95,141.4333,292.66,24,100,6.83,AU,1679342182
210,kamenka,51.3223,42.7678,280.46,63,96,3.23,RU,1679342182
211,samarai,-10.6167,150.6667,301.34,77,4,4.68,PG,1679342183
212,tabou,4.423,-7.3528,299.56,85,50,4.41,CI,1679342183
213,arman,59.7,150.1667,250.37,85,13,3.76,RU,1679342184
214,ahipara,-35.1667,173.1667,290.92,82,67,3.14,NZ,1679342185
215,lorengau,-2.0226,147.2712,300.44,80,90,3.0,PG,1679342188
216,berbera,10.4396,45.0143,301.66,68,22,1.5,SO,1679342189
217,praia da vitoria,38.7333,-27.0667,290.29,77,40,3.86,PT,1679342048
218,san patricio,28.017,-97.5169,291.08,64,100,5.98,US,1679342191
219,takoradi,4.8845,-1.7554,300.33,83,77,4.93,GH,1679342191
220,bandarbeyla,9.4942,50.8122,300.19,85,83,5.93,SO,1679342192
221,kaitangata,-46.2817,169.8464,282.41,88,100,10.32,NZ,1679342192
222,sao joao da barra,-21.6403,-41.0511,303.2,81,11,6.66,BR,1679342193
223,luderitz,-26.6481,15.1594,289.94,77,0,4.08,NA,1679342194
224,saint-georges,12.0564,-61.7485,302.97,58,40,10.29,GD,1679342194
225,saint-joseph,-21.3667,55.6167,297.36,83,100,2.71,RE,1679342194
226,isangel,-19.55,169.2667,299.16,80,93,6.57,VU,1679342195
227,san cristobal,7.7669,-72.225,299.25,33,41,0.85,VE,1679342195
228,bontang,0.1333,117.5,299.04,83,100,1.91,ID,1679342196
229,jibuti,11.5,42.5,299.99,57,13,1.53,DJ,1679342196
230,ailigandi,9.2333,-78.0167,300.55,73,100,4.61,PA,1679342197
231,catuday,16.2923,119.8062,296.99,76,9,1.07,PH,1679342197
232,souillac,-20.5167,57.5167,298.36,94,40,0.51,MU,1679342197
233,pathein,16.7833,94.7333,297.58,73,72,4.06,MM,1679342198
234,playas,-2.6333,-80.3833,300.89,73,11,3.78,EC,1679342198
235,udachnyy,66.4167,112.4,233.77,100,75,1.96,RU,1679341911
236,poum,-20.2333,164.0167,298.49,73,21,5.23,NC,1679342199
237,sananduva,-27.9497,-51.8067,296.6,70,68,3.03,BR,1679342200
238,guerrero negro,27.9769,-114.0611,294.55,55,96,5.41,MX,1679342200
239,annau,37.8876,58.516,286.87,47,40,1.03,TM,1679342200
240,deputatskiy,69.3,139.9,243.94,92,100,3.29,RU,1679342201
241,leshukonskoye,64.8989,45.7622,273.68,98,100,5.01,RU,1679342201
242,laguna,38.421,-121.4238,288.74,63,0,6.17,US,1679342202
243,biala podlaska,52.0324,23.1165,282.66,91,100,3.97,PL,1679342202
244,san luis,-33.295,-66.3356,299.77,57,88,2.69,AR,1679342167
245,inongo,-1.95,18.2667,296.4,89,79,1.34,CD,1679342203
246,nantucket,41.2835,-70.0995,280.37,58,0,10.29,US,1679341917
247,piombino,42.9348,10.5221,287.62,80,6,0.89,IT,1679341985
248,kruisfontein,-34.0033,24.7314,291.42,67,0,2.73,ZA,1679342204
249,batemans bay,-35.7167,150.1833,290.43,72,100,1.78,AU,1679342009
250,north bend,43.4065,-124.2243,282.73,71,100,5.14,US,1679342204
251,marathon,44.9,-89.7668,276.99,50,0,1.54,US,1679342205
252,khandbari,27.3747,87.2039,287.38,93,100,0.4,NP,1679342205
253,tallahassee,30.4383,-84.2807,288.89,31,20,3.6,US,1679342012
254,sydney,-33.8679,151.2073,292.8,72,75,7.72,AU,1679341740
255,carutapera,-1.195,-46.02,297.41,87,100,2.11,BR,1679342206
256,beloha,-25.1667,45.05,296.08,87,38,6.07,MG,1679342206
257,yatou,37.15,122.3833,277.63,79,21,1.95,CN,1679342207
258,mansa,29.9833,75.3833,286.59,97,100,2.57,IN,1679342208
259,kolokani,13.5728,-8.0339,302.83,11,0,4.01,ML,1679342209
260,soni,-4.85,38.3667,290.12,94,77,0.67,TZ,1679342210
261,vytegra,61.0064,36.4481,275.99,96,100,4.12,RU,1679342212
262,houston,29.7633,-95.3633,288.38,49,100,7.72,US,1679342165
263,asau,46.4333,26.4,274.66,69,99,1.42,RO,1679342212
264,cherdyn,60.403,56.4787,270.09,96,100,2.81,RU,1679342213
265,corvallis,44.5646,-123.262,282.51,88,100,7.2,US,1679341932
266,shieli,44.1667,66.75,279.11,47,77,5.7,KZ,1679342214
267,warrington,53.3925,-2.5802,285.82,93,75,4.12,GB,1679342214
268,manati,18.4275,-66.4921,303.9,72,33,7.04,PR,1679342215
269,wilmington,34.2257,-77.9447,282.01,47,100,5.14,US,1679342022
270,poronaysk,49.2167,143.1167,265.16,97,57,0.69,RU,1679342215
271,natal,-5.795,-35.2094,301.51,74,40,6.69,BR,1679342078
272,puerto escondido,15.85,-97.0667,303.35,50,13,3.69,MX,1679342216
273,agadez,19.75,10.25,303.44,16,97,5.43,NE,1679342216
274,pitimbu,-7.4706,-34.8086,302.48,73,39,5.04,BR,1679342217
275,victoria,22.2855,114.1577,296.59,86,93,1.79,HK,1679342015
276,pangnirtung,66.1451,-65.7125,253.15,77,20,2.57,CA,1679342217
277,vardo,70.3705,31.1107,269.14,80,75,13.89,NO,1679342218
278,vila franca do campo,37.7167,-25.4333,289.38,75,49,2.08,PT,1679342218
279,shimanovsk,52.0,127.7,267.79,97,22,2.08,RU,1679342219
280,mokhsogollokh,61.4681,128.9203,238.4,97,64,2.08,RU,1679342219
281,nago,26.5881,127.9761,294.62,89,95,5.1,JP,1679342220
282,sarapul,56.4763,53.7978,273.87,96,100,4.39,RU,1679342220
283,ridgecrest,35.6225,-117.6709,291.31,39,75,7.72,US,1679342220
284,vestmanna,62.1564,-7.1664,275.66,75,75,9.26,FO,1679342221
285,trinidad,-14.8333,-64.9,299.14,89,75,2.57,BO,1679342221
286,ginda,30.6945,78.4932,282.77,85,100,0.69,IN,1679342222
287,henties bay,-22.116,14.2845,290.64,86,1,5.71,NA,1679342222
288,madang,-5.2246,145.7966,297.61,91,29,1.2,PG,1679342223
289,del rio,29.3627,-100.8968,284.21,76,100,7.72,US,1679342223
290,alyangula,-13.8483,136.4192,300.27,84,54,5.12,AU,1679342224
291,straumen,63.8709,11.2999,275.15,86,100,2.76,NO,1679342224
292,camapua,-19.5314,-54.0439,297.61,86,80,2.46,BR,1679342225
293,changji,44.0167,87.3167,270.59,100,75,2.0,CN,1679342225
294,teya,60.3778,92.6267,248.39,99,98,1.85,RU,1679342226
295,yulara,-25.2406,130.9889,296.31,33,88,3.66,AU,1679342226
296,san andres,12.5847,-81.7006,303.16,66,20,6.17,CO,1679342226
297,sohag,26.557,31.6948,291.31,37,0,3.26,EG,1679342227
298,palu,-0.8917,119.8707,296.94,96,99,1.04,ID,1679342227
299,port lincoln,-34.7333,135.8667,289.68,84,0,3.77,AU,1679342228
300,luang prabang,19.8856,102.1347,295.73,61,0,0.67,LA,1679342228
301,manokwari,-0.8667,134.0833,298.71,81,100,1.39,ID,1679342229
302,dunedin,-45.8742,170.5036,285.26,67,100,1.34,NZ,1679342229
303,hangu,39.2489,117.7892,284.17,68,18,2.59,CN,1679342230
304,ucluelet,48.9329,-125.5528,282.64,90,100,1.15,CA,1679342067
305,flinders,-34.5833,150.8552,290.47,90,100,1.79,AU,1679342230
306,half moon bay,37.4636,-122.4286,287.82,63,100,3.6,US,1679342216
307,hoa binh,20.8133,105.3383,296.03,97,40,0.73,VN,1679342233
308,changde,29.0464,111.6783,284.61,97,100,1.65,CN,1679342233
309,coos bay,43.3665,-124.2179,282.77,71,100,5.14,US,1679342234
310,temanggung,-7.3162,110.1755,296.63,94,100,0.29,ID,1679342235
311,cayenne,4.9333,-52.3333,298.17,94,75,1.54,GF,1679342235
312,beyneu,45.3167,55.2,279.91,58,4,5.94,KZ,1679342236
313,salalah,17.0151,54.0924,301.2,74,40,1.03,OM,1679342018
314,guilin,25.2819,110.2864,287.21,92,100,0.15,CN,1679342237
315,sukumo,32.9333,132.7333,285.29,87,100,2.36,JP,1679342237
316,coquimbo,-29.9533,-71.3436,295.0,68,0,5.66,CL,1679342237
317,puerto carreno,6.189,-67.4859,309.14,32,20,4.12,CO,1679342238
318,nouakchott,18.0858,-15.9785,296.11,70,0,6.48,MR,1679342238
319,srednekolymsk,67.45,153.6833,247.11,97,100,5.94,RU,1679342239
320,fortuna,40.5982,-124.1573,286.44,62,75,1.34,US,1679342239
321,vaitape,-16.5167,-151.75,301.26,68,7,3.93,PF,1679342240
322,lagunas,-5.2269,-75.6753,303.95,60,99,0.7,PE,1679342240
323,sao joao do piaui,-8.3581,-42.2467,300.5,78,81,0.76,BR,1679342241
324,daru,-9.0763,143.2092,299.58,86,100,2.65,PG,1679342241
325,ponta do sol,32.6667,-17.1,292.04,68,5,2.12,PT,1679342241
326,ostersund,63.1792,14.6357,273.4,69,0,4.63,SE,1679341949
327,quelimane,-17.8786,36.8883,298.12,83,40,2.06,MZ,1679342242
328,itarema,-2.9248,-39.9167,297.2,90,100,3.93,BR,1679342242
329,kloulklubed,7.0419,134.2556,298.43,76,32,7.41,PW,1679342243
330,kuching,1.55,110.3333,298.83,93,20,1.03,MY,1679342243
331,itaituba,-4.2761,-55.9836,304.24,66,40,4.63,BR,1679342244
332,erzin,36.9559,36.2,284.22,87,18,0.82,TR,1679342244
333,namibe,-15.1961,12.1522,296.64,72,93,2.75,AO,1679342245
334,fort nelson,58.8053,-122.7002,273.92,51,20,0.0,CA,1679342245
335,hope,33.6671,-93.5916,287.18,29,100,3.84,US,1679342245
336,alekseyevsk,57.8406,108.3492,245.33,100,40,1.16,RU,1679342246
337,fuerte,17.5381,120.3644,297.2,80,91,1.61,PH,1679342246
338,linares,-35.85,-71.6,304.25,12,4,2.2,CL,1679342247
339,narsaq,60.9167,-46.05,272.7,60,100,6.78,GL,1679342247
340,ust-barguzin,53.45,108.9833,263.69,88,100,3.24,RU,1679342248
341,den helder,52.9599,4.7593,282.05,99,100,6.26,NL,1679342248
342,mount isa,-20.7333,139.5,294.02,78,65,0.0,AU,1679342249
343,dicabisagan,17.0818,122.4157,295.48,90,90,1.77,PH,1679342249
344,faya,18.3851,42.4509,286.44,42,18,3.27,SA,1679342250
345,sulangan,11.1373,123.7228,298.75,76,10,4.89,PH,1679342250
346,biak,-0.9131,122.8766,297.75,85,100,0.39,ID,1679342250
347,mayo,38.8876,-76.5119,286.04,36,0,6.69,US,1679341988
348,komatsu,36.4026,136.4509,279.14,81,40,0.51,JP,1679342251
349,port-de-bouc,43.4,4.9833,287.16,67,0,2.06,FR,1679342251
350,chuncheng,22.1731,111.7886,293.76,97,54,1.42,CN,1679342252
351,grindavik,63.8424,-22.4338,273.41,59,0,8.23,IS,1679342252
352,vozuca,44.3614,18.3578,284.53,88,100,1.35,BA,1679342253
353,key largo,25.0865,-80.4473,296.48,68,95,6.02,US,1679342235
354,pangody,65.85,74.4859,260.42,90,71,4.34,RU,1679342255
355,ribas do rio pardo,-20.4431,-53.7592,298.73,81,93,2.99,BR,1679342256
356,totness,5.8833,-56.3167,299.58,69,52,6.54,SR,1679342256
357,kuhdasht,33.535,47.6061,283.9,58,100,0.17,IR,1679342257
358,saint-augustin,51.226,-58.6502,272.73,74,100,12.28,CA,1679342258
359,qujing,25.4833,103.7833,287.37,52,16,9.49,CN,1679342258
360,vao,-22.6667,167.4833,297.98,67,7,8.43,NC,1679342259
361,alta floresta,-9.8756,-56.0861,302.05,70,40,6.17,BR,1679342259
362,alofi,-19.0595,-169.9187,300.09,83,97,3.09,NU,1679342260
363,belaya gora,68.5333,146.4167,244.19,98,100,0.38,RU,1679342260
364,salinopolis,-0.6136,-47.3561,296.73,94,100,5.88,BR,1679342261
365,chernyshevskiy,63.0128,112.4714,232.95,100,53,1.02,RU,1679342261
366,nangong,37.3581,115.3744,282.1,81,32,3.59,CN,1679342261
367,boquira,-12.8231,-42.7306,301.21,46,96,0.49,BR,1679342262
368,portland,45.5234,-122.6762,283.86,79,100,4.63,US,1679341968
369,jhargram,22.45,86.9833,296.52,74,39,2.3,IN,1679342262
370,saint george,37.1041,-113.5841,286.62,71,100,3.6,US,1679342051
371,porteirinha,-15.7433,-43.0283,305.7,27,100,4.06,BR,1679342263
372,asfi,32.2994,-9.2372,288.89,77,0,6.21,MA,1679342263
373,santa vitoria do palmar,-33.5189,-53.3681,295.6,72,97,6.3,BR,1679342264
374,saint-michel-des-saints,46.6834,-73.9159,275.34,93,100,4.11,CA,1679342264
375,baruun-urt,46.6806,113.2792,273.76,35,100,1.76,MN,1679342265
376,rreshen,41.7675,19.8756,284.75,78,100,0.77,AL,1679342265
377,port hardy,50.6996,-127.4199,280.25,100,100,1.54,CA,1679342266
378,pevek,69.7008,170.3133,248.4,86,100,4.75,RU,1679342266
379,mehamn,71.0357,27.8492,270.1,63,75,7.2,NO,1679342267
380,te anau,-45.4167,167.7167,280.21,89,100,3.91,NZ,1679342267
381,hirara,24.8,125.2833,295.07,94,40,3.09,JP,1679342268
382,quang ngai,15.1167,108.8,295.44,94,32,2.12,VN,1679342268
383,cannes,43.55,7.0167,287.91,77,0,1.54,FR,1679341970
384,diamantino,-14.4086,-56.4461,295.66,97,100,2.22,BR,1679342269
385,rafai,4.95,23.9167,294.14,78,48,0.34,CF,1679342269
386,blyth,55.1271,-1.5086,285.42,84,40,2.06,GB,1679342270
387,aswan,24.0934,32.907,293.76,21,0,3.09,EG,1679342270
388,lanzhou,36.0564,103.7922,282.52,28,6,1.16,CN,1679342270
389,bouloupari,-21.8667,166.05,295.1,76,31,2.25,NC,1679342271
390,polson,47.6936,-114.1632,281.75,68,100,0.45,US,1679342271
391,bucerias,20.75,-105.3333,301.9,42,0,4.23,MX,1679341972
392,haizhou,34.5817,119.1289,280.66,93,56,2.04,CN,1679342272
393,salinas,36.6777,-121.6555,289.24,68,75,3.09,US,1679342273
394,burgeo,47.6167,-57.6152,270.32,78,100,18.08,CA,1679342273
395,belmonte,-15.8631,-38.8828,300.51,71,13,3.65,BR,1679342274
396,manavalakurichi,8.1333,77.3,299.39,80,100,3.46,IN,1679342274
397,kerugoya,-0.4989,37.2803,289.96,89,94,1.09,KE,1679342274
398,bundaberg,-24.85,152.35,296.05,97,12,1.79,AU,1679342275
399,kieta,-6.2167,155.6333,298.2,82,7,1.83,PG,1679342275
400,vostok,46.4856,135.8833,267.89,83,88,2.48,RU,1679342276
401,lyngseidet,69.5763,20.2189,269.15,83,72,4.8,NO,1679342276
402,ostrovnoy,68.0531,39.5131,267.83,90,30,10.81,RU,1679342276
403,darhan,49.4867,105.9228,264.77,88,100,11.32,MN,1679342277
404,santarem,-2.4431,-54.7083,303.22,74,40,3.09,BR,1679342278
405,cap-aux-meules,47.3821,-61.8597,272.16,55,20,13.89,CA,1679342279
406,tahoua,14.8888,5.2692,302.14,35,51,4.39,NE,1679342280
407,beloeil,45.5668,-73.1992,278.85,51,20,11.32,CA,1679342186
408,qostanay,53.1667,63.5833,265.31,79,75,5.0,KZ,1679342282
409,yaan,7.3833,8.5667,304.28,44,61,2.42,NG,1679342282
410,puerto penasco,31.3167,-113.5333,291.43,74,85,7.15,MX,1679342052
411,aranos,-24.1333,19.1167,297.75,28,58,3.27,NA,1679342283
412,thinadhoo,0.5333,72.9333,300.63,78,100,3.79,MV,1679342283
413,bengkulu,-3.8004,102.2655,297.36,90,95,2.0,ID,1679342284
414,sakakah,29.9697,40.2064,287.91,59,87,5.9,SA,1679342284
415,port hedland,-20.3167,118.5667,303.18,84,67,1.54,AU,1679342285
416,chinhoyi,-17.3667,30.2,292.36,87,71,2.25,ZW,1679342285
417,kilinochchi,9.3961,80.3982,297.06,92,99,2.98,LK,1679342286
418,hun,29.1268,15.9477,297.82,15,100,9.29,LY,1679342287
419,ancud,-41.8697,-73.8203,287.92,64,98,3.0,CL,1679342287
420,atambua,-9.1061,124.8925,295.17,88,65,1.47,ID,1679342287
421,ardmore,34.1743,-97.1436,285.18,42,100,7.6,US,1679342283
422,rockland,41.1668,-74.0496,285.36,24,0,2.68,US,1679342151
423,north platte,41.1239,-100.7654,284.33,31,0,7.6,US,1679342289
424,araouane,18.9048,-3.5265,298.47,9,0,4.76,ML,1679342289
425,klyuchevskiy,53.5317,119.4519,267.16,98,96,0.45,RU,1679342290
426,juneau,58.3019,-134.4197,277.16,97,100,1.54,US,1679342290
427,beira,-19.8436,34.8389,297.1,77,0,2.96,MZ,1679342291
428,yashan,22.1975,109.9419,294.96,93,76,3.0,CN,1679342291
429,madingou,-4.1536,13.55,296.28,91,49,0.28,CG,1679342292
430,norman wells,65.282,-126.8329,265.17,67,40,5.66,CA,1679342293
431,paracuru,-3.41,-39.0306,299.88,90,100,3.27,BR,1679342293
432,plouzane,48.3833,-4.6167,284.25,84,100,6.69,FR,1679342294
433,camacha,33.0833,-16.3333,288.83,63,40,5.66,PT,1679342294
434,tilichiki,60.4667,166.1,251.52,99,100,2.37,RU,1679342295
435,la ronge,55.1001,-105.2842,266.29,45,40,5.14,CA,1679342295
436,yeppoon,-23.1333,150.7333,296.03,65,0,7.96,AU,1679342296
437,bosilegrad,42.5011,22.4724,284.62,63,100,1.66,RS,1679342296
438,atikokan,48.7555,-91.6216,267.75,67,100,2.48,CA,1679342297
439,ola,59.5833,151.2833,253.4,84,50,3.93,RU,1679342297
440,komsomolskiy,40.4272,71.7189,284.55,66,40,1.03,UZ,1679342298
441,raudeberg,61.9875,5.1352,276.52,54,31,2.99,NO,1679342298
442,puerto ayacucho,5.6639,-67.6236,309.97,23,74,2.77,VE,1679342299
443,yakeshi,49.2833,120.7333,264.37,98,97,0.78,CN,1679342299
444,loandjili,-4.7561,11.8578,299.43,79,93,2.09,CG,1679342300
445,nuuk,64.1835,-51.7216,266.41,77,79,4.4,GL,1679342302
446,rio grande,-32.035,-52.0986,304.21,86,48,4.75,BR,1679342303
447,talnakh,69.4865,88.3972,258.09,93,100,10.5,RU,1679342305
448,tiksi,71.6872,128.8694,240.83,98,90,4.53,RU,1679342305
449,rock sound,24.9,-76.2,296.96,82,37,5.51,BS,1679342306
450,marawi,7.9986,124.2928,294.14,98,89,0.76,PH,1679342306
451,rovaniemi,66.5,25.7167,263.82,79,0,1.54,FI,1679342307
452,koslan,63.4564,48.8989,273.44,97,100,5.12,RU,1679342307
453,dukat,62.55,155.55,240.32,100,86,2.57,RU,1679342308
454,yagodnoye,62.55,149.6667,242.47,100,99,1.2,RU,1679342309
455,makakilo city,21.3469,-158.0858,299.51,67,0,4.12,US,1679342309
456,semey,50.4111,80.2275,262.59,87,50,1.02,KZ,1679342311
457,chapais,49.7834,-74.8492,266.03,67,100,4.14,CA,1679342311
458,murgab,37.4966,61.9714,286.08,41,41,0.0,TM,1679342312
459,eston,51.1501,-108.7514,267.7,88,92,2.34,CA,1679342312
460,honningsvag,70.9821,25.9704,270.01,63,75,5.14,NO,1679342313
461,betioky,-23.7167,44.3833,296.61,82,0,4.17,MG,1679342313
462,shaoyang,27.2315,111.4525,287.21,94,100,1.58,CN,1679342314
463,glomfjord,66.8167,13.9667,270.0,91,100,4.36,NO,1679342314
464,kibala,9.1104,18.3463,302.12,54,20,1.54,TD,1679342314
465,varadero,23.1536,-81.2514,295.14,84,100,8.18,CU,1679342315
466,nokia,61.4667,23.5,273.14,98,40,1.54,FI,1679342315
467,pemba,-12.974,40.5178,299.54,89,75,1.54,MZ,1679342316
468,fairbanks,64.8378,-147.7164,271.61,64,0,0.0,US,1679342316
469,mabai,23.0128,104.4508,287.44,93,100,1.83,CN,1679342316
470,zhicheng,30.2956,111.5047,282.43,88,100,0.86,CN,1679342317
471,coihaique,-45.5752,-72.0662,291.49,48,0,1.54,CL,1679342317
472,dingle,10.9995,122.6711,294.6,88,11,2.97,PH,1679342318
473,livingston,55.9029,-3.5226,283.42,93,75,1.03,GB,1679342318
474,bardiyah,31.7561,25.0865,287.41,79,10,2.15,LY,1679342318
475,jalu,29.0331,21.5482,291.5,27,4,4.8,LY,1679342319
476,smithers,54.7804,-127.1743,277.33,52,40,0.0,CA,1679342319
477,tarko-sale,64.9225,77.785,263.54,92,61,5.75,RU,1679342320
478,tutoia,-2.7619,-42.2744,296.88,92,100,4.48,BR,1679342320
479,buala,-8.145,159.5921,299.8,81,71,3.01,SB,1679342321
480,radford,37.1318,-80.5764,283.87,27,0,2.57,US,1679342321
481,sur,22.5667,59.5289,298.84,58,1,4.22,OM,1679342324
482,lincoln,40.8,-96.667,291.12,27,0,3.58,US,1679342174
483,fare,-16.7,-151.0167,301.14,70,69,4.19,PF,1679342325
484,sangolqui,-0.3341,-78.4522,293.42,73,100,2.53,EC,1679342326
485,mana,5.6592,-53.7767,299.69,67,50,5.11,GF,1679342327
486,humaita,-7.5061,-63.0208,300.6,84,100,1.65,BR,1679342327
487,scarborough,54.2797,-0.4044,284.63,90,100,2.24,GB,1679342232
488,ondjiva,-17.0667,15.7333,300.17,50,70,0.0,AO,1679342329
489,rincon,32.296,-81.2354,289.13,35,20,4.12,US,1679342329
490,haimen,23.1935,116.6142,291.09,90,60,0.22,CN,1679342330
491,dawei,14.0833,98.2,296.78,86,23,1.07,MM,1679342330
492,paka,4.6374,103.4368,299.11,94,98,0.0,MY,1679342331
493,kununurra,-15.7667,128.7333,297.14,94,92,0.0,AU,1679342331
494,sechura,-5.5569,-80.8222,303.42,59,53,5.28,PE,1679342331
495,makasar,-5.14,119.4221,298.18,100,40,1.03,ID,1679342332
496,vila velha,-20.3297,-40.2925,303.12,78,20,6.69,BR,1679342332
497,kutum,14.2,24.6667,297.23,14,54,5.94,SD,1679342333
498,pemangkat,1.1667,108.9667,297.94,87,100,1.34,ID,1679342333
499,jumla,29.2747,82.1838,279.77,100,100,1.66,NP,1679342333
500,maryville,35.7565,-83.9705,284.64,33,0,3.58,US,1679342334
501,namtsy,62.7161,129.6658,239.94,93,6,3.57,RU,1679342334
502,terre haute,39.4667,-87.4139,283.85,36,0,6.69,US,1679342174
503,saint anthony,45.0205,-93.218,276.56,54,0,5.66,US,1679342335
504,guaruja,-23.9931,-46.2564,302.53,37,100,2.68,BR,1679342081
505,abonnema,4.7084,6.7931,300.46,73,38,3.42,NG,1679342336
506,dessau,51.8386,12.2456,283.96,84,84,1.34,DE,1679342336
507,salgueiro,-8.0742,-39.1192,301.55,53,76,2.06,BR,1679342337
508,haines junction,60.7522,-137.5108,274.12,64,96,1.54,CA,1679342337
509,balabac,7.9868,117.0645,299.63,82,100,4.04,PH,1679342337
510,dakar,14.6937,-17.4441,297.64,79,2,6.1,SN,1679342338
511,coahuayana,18.7333,-103.6833,305.64,28,0,4.34,MX,1679342338
512,grand gaube,-20.0064,57.6608,298.37,81,9,1.34,MU,1679342339
513,estacion coahuila,32.1939,-115.0017,298.77,25,99,5.53,MX,1679342339
514,cabedelo,-6.9811,-34.8339,302.52,75,25,5.0,BR,1679342340
515,phan thiet,10.9333,108.1,296.64,84,100,1.51,VN,1679342340
516,asyut,27.181,31.1837,290.25,38,0,3.59,EG,1679342341
517,sangar,63.9242,127.4739,233.06,99,94,1.83,RU,1679342341
518,antofagasta,-23.65,-70.4,295.75,71,15,2.93,CL,1679342342
519,beringovskiy,63.05,179.3167,263.22,88,100,13.56,RU,1679342342
520,shemonaikha,50.6328,81.9056,254.57,97,39,1.03,KZ,1679342343
521,warrnambool,-38.3833,142.4833,288.33,77,100,2.96,AU,1679342343
522,zavyalovo,54.5053,82.4484,264.13,90,100,5.19,RU,1679342344
523,lagoa,39.05,-27.9833,288.12,82,100,7.54,PT,1679342344
524,namatanai,-3.6667,152.4333,298.49,75,15,1.88,PG,1679342345
525,zyryanka,65.75,150.85,249.85,99,100,1.32,RU,1679342345
526,shimoda,34.6667,138.95,283.76,77,100,1.9,JP,1679342346
527,manicore,-5.8092,-61.3003,302.12,74,20,3.6,BR,1679342347
528,teahupoo,-17.8333,-149.2667,300.13,78,100,5.99,PF,1679342348
529,vieux fort,13.7167,-60.95,300.79,65,75,13.89,LC,1679342349
530,port pirie,-33.1833,138.0167,292.01,80,70,1.27,AU,1679342350
531,alanya,36.5438,31.9998,288.09,53,0,2.57,TR,1679342308
532,okhotsk,59.3833,143.3,248.78,75,13,5.24,RU,1679342350
533,hastings,50.8552,0.5729,283.14,97,100,7.21,GB,1679342351
534,valparaiso,-33.0393,-71.6273,294.82,72,100,4.12,CL,1679342352
535,shitanjing,39.2342,106.3439,278.52,30,50,3.6,CN,1679342352
536,sitka,57.0531,-135.33,279.09,81,40,2.06,US,1679342353
537,lata,40.1629,-8.3327,287.49,87,93,0.8,PT,1679342353
538,zhanakorgan,43.9098,67.2495,280.42,46,40,4.3,KZ,1679342354
539,sinnamary,5.3833,-52.95,299.16,71,72,5.67,GF,1679342354
540,nanortalik,60.1432,-45.2371,273.13,73,100,4.02,GL,1679342355
541,huarmey,-10.0681,-78.1522,299.84,72,54,4.29,PE,1679342355
542,jacareacanga,-6.2222,-57.7528,301.14,81,40,1.58,BR,1679342356
543,maiquetia,10.5962,-66.9548,301.23,61,73,8.23,VE,1679342357
544,sibanicu,21.235,-77.5264,299.23,67,100,1.11,CU,1679342358
545,hambantota,6.1241,81.1185,298.49,83,76,1.26,LK,1679342358
546,kyren,51.6828,102.1408,260.57,83,100,2.42,RU,1679342358
547,novoagansk,61.9449,76.6625,267.65,96,98,3.83,RU,1679342359
548,surt,31.2089,16.5887,293.19,49,100,9.9,LY,1679342360
549,clyde river,70.4692,-68.5914,251.28,71,100,5.14,CA,1679342360
550,hofn,64.2539,-15.2082,270.16,63,100,8.75,IS,1679342361
551,cedar city,37.6775,-113.0619,276.69,93,75,4.63,US,1679342137
552,new glasgow,45.5834,-62.6486,276.03,65,54,7.87,CA,1679342361
553,westport,41.1415,-73.3579,285.29,29,0,5.66,US,1679342097
554,besikduzu,41.052,39.2284,282.09,92,100,5.11,TR,1679342362
555,mapiripan,2.8892,-72.1256,307.73,28,91,4.31,CO,1679342362
556,nzerekore,7.7562,-8.8179,299.13,59,41,1.69,GN,1679342363
557,dauphin,51.1494,-100.0502,261.23,72,0,4.12,CA,1679342364
558,guliston,40.4897,68.7842,285.46,65,53,2.65,UZ,1679342364
559,kiama,-34.6833,150.8667,292.59,92,100,4.98,AU,1679342365
560,caborca,30.5838,-111.101,295.38,33,77,9.27,MX,1679342365
